{
  "note": "Illustrative sample dataset for demo, replace with official WBSDMA/NDMA shelter registry in production",
  "shelters": [
    {
      "id": "WB-S24P-001",
      "name": "Sagar Multi-Purpose Cyclone Shelter, Rudranagar",
      "name_bn": "সাগর বহুমুখী ঘূর্ণিঝড় আশ্রয়কেন্দ্র, রুদ্রনগর",
      "district": "South 24 Parganas",
      "block_or_area": "Sagar block",
      "lat": 21.653,
      "lon": 88.062,
      "capacity": 800,
      "facilities": ["drinking water", "separate toilets", "first aid", "community kitchen", "solar lighting", "livestock shed", "ramp access"],
      "landmark": "Near Rudranagar Bazar, beside the block hospital road"
    },
    {
      "id": "WB-S24P-002",
      "name": "Gosaba Rangabelia MPCS",
      "name_bn": "গোসাবা রাঙাবেলিয়া বহুমুখী ঘূর্ণিঝড় আশ্রয়কেন্দ্র",
      "district": "South 24 Parganas",
      "block_or_area": "Gosaba block",
      "lat": 22.165,
      "lon": 88.807,
      "capacity": 600,
      "facilities": ["drinking water", "separate toilets", "first aid", "community kitchen", "solar lighting"],
      "landmark": "Near Rangabelia ferry ghat, Gosaba island"
    },
    {
      "id": "WB-S24P-003",
      "name": "Kakdwip Suryanagar High School Relief Centre",
      "name_bn": "কাকদ্বীপ সূর্যনগর হাই স্কুল ত্রাণ কেন্দ্র",
      "district": "South 24 Parganas",
      "block_or_area": "Kakdwip block",
      "lat": 21.879,
      "lon": 88.191,
      "capacity": 500,
      "facilities": ["drinking water", "toilets", "first aid", "community kitchen", "generator"],
      "landmark": "Off Kakdwip station road, near the ferry ghat to Sagar"
    },
    {
      "id": "WB-S24P-004",
      "name": "Namkhana Narayanpur MPCS",
      "name_bn": "নামখানা নারায়ণপুর বহুমুখী ঘূর্ণিঝড় আশ্রয়কেন্দ্র",
      "district": "South 24 Parganas",
      "block_or_area": "Namkhana block",
      "lat": 21.767,
      "lon": 88.232,
      "capacity": 700,
      "facilities": ["drinking water", "separate toilets", "first aid", "community kitchen", "solar lighting", "livestock shed"],
      "landmark": "Near Namkhana bus stand, west of Hatania-Doania channel"
    },
    {
      "id": "WB-N24P-001",
      "name": "Hingalganj Dulduli MPCS",
      "name_bn": "হিঙ্গলগঞ্জ দুলদুলি বহুমুখী ঘূর্ণিঝড় আশ্রয়কেন্দ্র",
      "district": "North 24 Parganas",
      "block_or_area": "Hingalganj block",
      "lat": 22.47,
      "lon": 88.87,
      "capacity": 650,
      "facilities": ["drinking water", "separate toilets", "first aid", "community kitchen", "solar lighting", "livestock shed"],
      "landmark": "Near Dulduli ferry ghat, Sundarban riverside"
    },
    {
      "id": "WB-N24P-002",
      "name": "Sandeshkhali Radharani High School Relief Centre",
      "name_bn": "সন্দেশখালি রাধারানী হাই স্কুল ত্রাণ কেন্দ্র",
      "district": "North 24 Parganas",
      "block_or_area": "Sandeshkhali-I block",
      "lat": 22.36,
      "lon": 88.85,
      "capacity": 450,
      "facilities": ["drinking water", "toilets", "first aid", "community kitchen"],
      "landmark": "Near Sandeshkhali ferry ghat and block office"
    },
    {
      "id": "WB-N24P-003",
      "name": "Basirhat College Flood Relief Centre",
      "name_bn": "বসিরহাট কলেজ বন্যা ত্রাণ কেন্দ্র",
      "district": "North 24 Parganas",
      "block_or_area": "Basirhat municipality",
      "lat": 22.657,
      "lon": 88.867,
      "capacity": 900,
      "facilities": ["drinking water", "separate toilets", "first aid", "community kitchen", "generator", "ramp access"],
      "landmark": "On the Ichhamati riverside road, near Basirhat station"
    },
    {
      "id": "WB-PMED-001",
      "name": "Digha Padima MPCS",
      "name_bn": "দিঘা পদিমা বহুমুখী ঘূর্ণিঝড় আশ্রয়কেন্দ্র",
      "district": "East Medinipur (Purba Medinipur)",
      "block_or_area": "Ramnagar-I block",
      "lat": 21.63,
      "lon": 87.52,
      "capacity": 750,
      "facilities": ["drinking water", "separate toilets", "first aid", "community kitchen", "solar lighting", "ramp access"],
      "landmark": "Behind Digha bus stand, off the Old Digha sea-front road"
    },
    {
      "id": "WB-PMED-002",
      "name": "Nandigram Brajamohan High School Relief Centre",
      "name_bn": "নন্দীগ্রাম ব্রজমোহন হাই স্কুল ত্রাণ কেন্দ্র",
      "district": "East Medinipur (Purba Medinipur)",
      "block_or_area": "Nandigram-I block",
      "lat": 22.007,
      "lon": 87.992,
      "capacity": 500,
      "facilities": ["drinking water", "toilets", "first aid", "community kitchen"],
      "landmark": "Near Nandigram bus stand, on the Haldia river ferry road"
    },
    {
      "id": "WB-PMED-003",
      "name": "Haldia Township MPCS",
      "name_bn": "হলদিয়া টাউনশিপ বহুমুখী ঘূর্ণিঝড় আশ্রয়কেন্দ্র",
      "district": "East Medinipur (Purba Medinipur)",
      "block_or_area": "Haldia municipality",
      "lat": 22.061,
      "lon": 88.07,
      "capacity": 1000,
      "facilities": ["drinking water", "separate toilets", "first aid", "community kitchen", "generator", "ramp access"],
      "landmark": "Near Haldia Township market, off the dock complex road"
    },
    {
      "id": "WB-KOL-001",
      "name": "Behala Municipal School Relief Centre",
      "name_bn": "বেহালা পৌর বিদ্যালয় ত্রাণ কেন্দ্র",
      "district": "Kolkata",
      "block_or_area": "Behala, KMC Borough XIII",
      "lat": 22.498,
      "lon": 88.31,
      "capacity": 400,
      "facilities": ["drinking water", "toilets", "first aid", "community kitchen", "generator"],
      "landmark": "Off Diamond Harbour Road, near Behala Chowrasta"
    },
    {
      "id": "WB-KOL-002",
      "name": "Kasba Community Hall Relief Centre",
      "name_bn": "কসবা কমিউনিটি হল ত্রাণ কেন্দ্র",
      "district": "Kolkata",
      "block_or_area": "Kasba, KMC Borough XII",
      "lat": 22.517,
      "lon": 88.376,
      "capacity": 350,
      "facilities": ["drinking water", "toilets", "first aid", "generator", "ramp access"],
      "landmark": "Near Kasba New Market, off Rashbehari connector"
    },
    {
      "id": "WB-HOW-001",
      "name": "Uluberia High School Relief Centre",
      "name_bn": "উলুবেড়িয়া হাই স্কুল ত্রাণ কেন্দ্র",
      "district": "Howrah",
      "block_or_area": "Uluberia-I block",
      "lat": 22.47,
      "lon": 88.11,
      "capacity": 550,
      "facilities": ["drinking water", "separate toilets", "first aid", "community kitchen"],
      "landmark": "Near Uluberia station road, close to the Hooghly riverbank"
    },
    {
      "id": "WB-HOW-002",
      "name": "Shyampur Flood Shelter, Belpukur",
      "name_bn": "শ্যামপুর বন্যা আশ্রয়কেন্দ্র, বেলপুকুর",
      "district": "Howrah",
      "block_or_area": "Shyampur-II block",
      "lat": 22.285,
      "lon": 88.03,
      "capacity": 450,
      "facilities": ["drinking water", "toilets", "first aid", "community kitchen", "livestock shed"],
      "landmark": "Near Shyampur bazar, on the Rupnarayan embankment road"
    },
    {
      "id": "WB-HOO-001",
      "name": "Arambagh Girls' High School Relief Centre",
      "name_bn": "আরামবাগ বালিকা বিদ্যালয় ত্রাণ কেন্দ্র",
      "district": "Hooghly",
      "block_or_area": "Arambagh municipality",
      "lat": 22.88,
      "lon": 87.788,
      "capacity": 500,
      "facilities": ["drinking water", "separate toilets", "first aid", "community kitchen", "generator"],
      "landmark": "Near Arambagh bus stand, west of the Dwarakeswar river bridge"
    },
    {
      "id": "WB-HOO-002",
      "name": "Balagarh Bhaba Prasad Vidyalaya Relief Centre",
      "name_bn": "বলাগড় ভবপ্রসাদ বিদ্যালয় ত্রাণ কেন্দ্র",
      "district": "Hooghly",
      "block_or_area": "Balagarh block",
      "lat": 23.08,
      "lon": 88.42,
      "capacity": 400,
      "facilities": ["drinking water", "toilets", "first aid", "community kitchen"],
      "landmark": "Near Jirat station, on the Hooghly riverbank erosion belt"
    }
  ]
}
